[{"number":7,"name":"007 - ANGE","address":"Place de l'ange","latitude":50.46424,"longitude":4.8652},{"number":30,"name":"30-PLACE LOUISE GODIN","address":"Place Louise Godin","latitude":50.460596,"longitude":4.842836},{"number":28,"name":"028 - EXPO","address":"Palais des expos","latitude":50.46675,"longitude":4.84834},{"number":17,"name":"017 - GARE DE JAMBES","address":"Rue de la gare fleurie","latitude":50.455072,"longitude":4.8755827},{"number":15,"name":"015 - PONT DE JAMBES","address":"AV Jean Materne \"EN ATTENTE DE MONTAGE\"","latitude":50.457996,"longitude":4.8669},{"number":22,"name":"022 - GROGNON","address":"Place St Hilaire","latitude":50.461532,"longitude":4.868059},{"number":1,"name":"001 - OCTAVE HENRY","address":"Rue de Gembloux","latitude":50.47536,"longitude":4.84661},{"number":24,"name":"024 - SAINT-AUBAIN","address":"Place St Aubin","latitude":50.46387,"longitude":4.861142},{"number":12,"name":"012 - PLACE SAINT-NICOLAS","address":"Avenue Albert Premier","latitude":50.46687,"longitude":4.88484},{"number":11,"name":"011 - CITE ADMINISTRATIVE","address":"Boulevard Cauchy","latitude":50.46786,"longitude":4.87352},{"number":13,"name":"013 - PONT DES ARDENNES","address":"Pont des Ardennes","latitude":50.46155,"longitude":4.87609},{"number":25,"name":"25-AUBERGE DE JEUNESSE","address":"AVenue Felicien Rops","latitude":50.448224,"longitude":4.859506},{"number":29,"name":"029 - WIERTZ","address":"Place Wiertz","latitude":50.464476,"longitude":4.849289},{"number":26,"name":"026 - ARSENAL","address":"Boulevard des frêres Orvan","latitude":50.464457,"longitude":4.85644},{"number":23,"name":"023 - PLACE MAURICE SERVAIS","address":"Place Maurice Servais","latitude":50.46204,"longitude":4.86499},{"number":10,"name":"010 - ARTHUR MASSON","address":"Square Arthur Masson","latitude":50.46364,"longitude":4.87353},{"number":34,"name":"034 - ROGIER","address":"Rue Rogier","latitude":50.46735,"longitude":4.86872},{"number":2,"name":"002 - CROIX DE FEUX","address":"Avenue des Croix de feu","latitude":50.470692,"longitude":4.852803},{"number":6,"name":"006 - HOTEL DE VILLE","address":"Rue de Fer","latitude":50.46697,"longitude":4.86546},{"number":18,"name":"018 - CPAS","address":"Rue de Daves","latitude":50.451892,"longitude":4.868837},{"number":27,"name":"027 - OMALIUS","address":"Place de Omalius","latitude":50.4674,"longitude":4.8581},{"number":3,"name":"003 - GARE DU NORD","address":"Boulevard du Nord","latitude":50.47001,"longitude":4.86199},{"number":16,"name":"016 - Place de Wallonie","address":"Place de la Wallonie","latitude":50.45602,"longitude":4.87266},{"number":4,"name":"004 - GARE DE NAMUR","address":"Gare de Namur","latitude":50.4683,"longitude":4.86266},{"number":21,"name":"021 - CASINO","address":"AVENUE BARON DE MOREAU / CASINO","latitude":50.45617,"longitude":4.86269},{"number":32,"name":"032 - PLACE DE L'ECOLE DES CADETS","address":"Place de l'école des cadets","latitude":50.46603,"longitude":4.87735}]